[
    {
        "id": "1",
        "name": "Clínica Dentária Lita",
        "coordinates": [
            41.913673,
            -8.566075
        ]
    },
    {
        "id": "2",
        "name": "Farmácia Calçada",
        "address": "Rua dos Emigrantes",
        "coordinates": [
            41.912684,
            -8.56363
        ]
    },
    {
        "id": "3",
        "name": "MClinic",
        "address": "Largo 5 de Outubro",
        "coordinates": [
            41.912922,
            -8.56311
        ]
    },
    {
        "id": "4",
        "name": "Junta de Freguesia da União de Freguesias de Paredes de Coura e Resende",
        "address": "Largo 5 de Outubro",
        "coordinates": [
            41.913427,
            -8.562983
        ]
    },
    {
        "id": "5",
        "name": "JL Reparações",
        "address": "Rua Frei António de Jesus, 42A",
        "coordinates": [
            41.913869,
            -8.561427
        ]
    },
    {
        "id": "6",
        "name": "Dental Clinicoura",
        "address": "Rua Frei António de Jesus, 34 R/C",
        "coordinates": [
            41.913791,
            -8.561512
        ]
    },
    {
        "id": "7",
        "name": "Análises Clínicas Dr Manuel Pimenta",
        "address": "Rua Frei António de Jesus, 24",
        "coordinates": [
            41.913709,
            -8.561609
        ]
    },
    {
        "id": "8",
        "name": "Centro de Estética Candida Pereira",
        "address": "Rua Frei António de Jeses, 22",
        "coordinates": [
            41.913681,
            -8.561647
        ]
    },
    {
        "id": "9",
        "name": "Electro Cunha",
        "address": "Rua Bernardino António Gomes, 9",
        "coordinates": [
            41.91343,
            -8.561636
        ]
    },
    {
        "id": "10",
        "name": "Artesanarte",
        "coordinates": [
            41.913304,
            -8.56153
        ]
    },
    {
        "id": "11",
        "name": "Foto Guilherme",
        "address": "Rua Bernardino António Gomes, 19",
        "coordinates": [
            41.91324,
            -8.561501
        ]
    },
    {
        "id": "12",
        "name": "Clínica Veterinária Dr Jorge Lino",
        "address": "Rua Bernardino António Gomes, 23",
        "coordinates": [
            41.913168,
            -8.561439
        ]
    },
    {
        "id": "13",
        "name": "AgrilCoura - Fogões",
        "address": "Rua Bernardino António Gomes",
        "coordinates": [
            41.913124,
            -8.561424
        ]
    },
    {
        "id": "14",
        "name": "Talho Carlos",
        "address": "Rua Bernardino António Gomes, 31",
        "coordinates": [
            41.913047,
            -8.561352
        ]
    },
    {
        "id": "15",
        "name": "AgrilCoura",
        "address": "Rua Bernardino António Gomes, 35",
        "coordinates": [
            41.912958,
            -8.561297
        ]
    },
    {
        "id": "16",
        "name": "Lavandaria Magia do Sabão",
        "address": "Rua Bernardino António Gomes",
        "coordinates": [
            41.912736,
            -8.561161
        ]
    },
    {
        "id": "17",
        "name": "Nicos Bar",
        "address": "Largo 5 de Outubro, 27",
        "coordinates": [
            41.913196,
            -8.561877
        ]
    },
    {
        "id": "18",
        "name": "Pastelaria Courense",
        "address": "Largo 5 de Outubro, 20",
        "coordinates": [
            41.913135,
            -8.561881
        ]
    },
    {
        "id": "19",
        "name": "Luanita",
        "address": "Largo 5 de Outubro, 16",
        "coordinates": [
            41.913041,
            -8.561907
        ]
    },
    {
        "id": "20",
        "name": "Opticoura",
        "address": "Largo 5 de Outubro, 2",
        "coordinates": [
            41.912724,
            -8.561979
        ]
    },
    {
        "id": "21",
        "name": "Centro Cultural",
        "coordinates": [
            41.912269,
            -8.563032
        ]
    },
    {
        "id": "22",
        "name": "Papelaria Nova Coura",
        "address": "Rua Conselheiro Miguel Dantas, 10",
        "coordinates": [
            41.912539,
            -8.562406
        ]
    },
    {
        "id": "23",
        "name": "Belinha Sapataria",
        "address": "Rua Conselheiro Miguel Dantas",
        "coordinates": [
            41.912562,
            -8.562226
        ]
    },
    {
        "id": "24",
        "name": "Banco Santander",
        "coordinates": [
            41.912566,
            -8.562002
        ]
    },
    {
        "id": "25",
        "name": "Atôla",
        "address": "Rua Conselheiro Miguel Dantas, 9",
        "coordinates": [
            41.912628,
            -8.561815
        ]
    },
    {
        "id": "26",
        "name": "Pastelaria Conselheiro",
        "address": "Rua Conselheiro Miguel Dantas, 17-19",
        "coordinates": [
            41.912593,
            -8.561704
        ]
    },
    {
        "id": "27",
        "name": "Café Courense",
        "address": "Rua Conselheiro Miguel Dantas",
        "coordinates": [
            41.912489,
            -8.561454
        ]
    },
    {
        "id": "28",
        "name": "Planeta D",
        "address": "Rua Conselheiro Miguel Dantas, 45",
        "coordinates": [
            41.912355,
            -8.561224
        ]
    },
    {
        "id": "29",
        "name": "Primax Jeans",
        "address": "Rua Conselheiro Miguel Dantas, 51",
        "coordinates": [
            41.912308,
            -8.561143
        ]
    },
    {
        "id": "30",
        "name": "Flor do Coura",
        "address": "Rua Conselheiro Miguel Dantas, 61",
        "coordinates": [
            41.912219,
            -8.561012
        ]
    },
    {
        "id": "31",
        "name": "Caixa Geral de Depósitos",
        "coordinates": [
            41.912128,
            -8.560879
        ]
    },
    {
        "id": "32",
        "name": "Simple Gift Shop",
        "address": "Rua Conselheiro Miguel Dantas, 28",
        "coordinates": [
            41.912395,
            -8.561465
        ]
    },
    {
        "id": "33",
        "name": "Primax Jeans Criança",
        "address": "Rua Conselheiro Miguel Dantas, 32",
        "coordinates": [
            41.912345,
            -8.56138
        ]
    },
    {
        "id": "34",
        "name": "Sapataria Alternativa",
        "address": "Rua Conselheiro Miguel Dantas, 36",
        "coordinates": [
            41.912343,
            -8.561359
        ]
    },
    {
        "id": "35",
        "name": "Restaurante Os Mouras",
        "address": "Rua Conselheiro Miguel Dantas, 42",
        "coordinates": [
            41.91225,
            -8.561233
        ]
    },
    {
        "id": "36",
        "name": "Quilate",
        "address": "Rua Conselheiro Miguel Dantas, 44",
        "coordinates": [
            41.912116,
            -8.560989
        ]
    },
    {
        "id": "37",
        "name": "Casa Forte",
        "address": "Rua Conselheiro Miguel Dantas, 56A",
        "coordinates": [
            41.912059,
            -8.56087
        ]
    },
    {
        "id": "38",
        "name": "CL Decor",
        "address": "Rua Conselheiro Miguel Dantas,",
        "coordinates": [
            41.91197,
            -8.560761
        ]
    },
    {
        "id": "39",
        "name": "Restaurante A Miquelina",
        "coordinates": [
            41.91194,
            -8.560709
        ]
    },
    {
        "id": "40",
        "name": "Café do Pi",
        "address": "Rua Conselheiro Miguel Dantas, 62",
        "coordinates": [
            41.91188,
            -8.560598
        ]
    },
    {
        "id": "41",
        "name": "Farmácia Ribeiro",
        "address": "Rua Conselheiro Miguel Dantas, 86-88",
        "coordinates": [
            41.911839,
            -8.560528
        ]
    },
    {
        "id": "42",
        "name": "Café Central 1",
        "address": "Rua Conselheiro Miguel Dantas, 90",
        "coordinates": [
            41.911796,
            -8.560436
        ]
    },
    {
        "id": "43",
        "name": "Pastelaria Visconde",
        "address": "Largo Visconde de Mozelos",
        "coordinates": [
            41.912289,
            -8.560508
        ]
    },
    {
        "id": "44",
        "name": "Loja Rural",
        "coordinates": [
            41.91218,
            -8.56013
        ]
    },
    {
        "id": "45",
        "name": "Quartel das Artes",
        "coordinates": [
            41.912092,
            -8.559854
        ]
    },
    {
        "id": "46",
        "name": "Museu Regional",
        "coordinates": [
            41.912742,
            -8.55906
        ]
    },
    {
        "id": "47",
        "name": "Energicoura",
        "address": "Rua Dr Aquilino Ribeiro, Bloco 10, Loja 1 e 2",
        "coordinates": [
            41.912942,
            -8.556675
        ]
    },
    {
        "id": "48",
        "name": "Cabeleireiros e Estética Nova Imagem",
        "address": "Rua Dr Aquilino Ribeiro, Bloco 11, Loja 2",
        "coordinates": [
            41.913128,
            -8.556522
        ]
    },
    {
        "id": "49",
        "name": "Belar",
        "address": "Rua Dr Aquilino Ribeiro, Loja 2",
        "coordinates": [
            41.912887,
            -8.556264
        ]
    },
    {
        "id": "50",
        "name": "Café Céu Doce",
        "coordinates": [
            41.912921,
            -8.556159
        ]
    },
    {
        "id": "51",
        "name": "Electrosat",
        "address": "Rua Dr Aquilino Ribeiro, Bloco 2, Loja 2",
        "coordinates": [
            41.913091,
            -8.555931
        ]
    },
    {
        "id": "52",
        "name": "Flor e Mimos",
        "coordinates": [
            41.913188,
            -8.555778
        ]
    },
    {
        "id": "53",
        "name": "Lavandaria Gira Água",
        "address": "Rua Dr Aquilino Ribeiro, Bloco 5, Loja 2",
        "coordinates": [
            41.913336,
            -8.555488
        ]
    },
    {
        "id": "54",
        "name": "Gabinete de Projetos Octávio Rodrigues",
        "address": "Largo Hintze Ribeiro",
        "coordinates": [
            41.911523,
            -8.560566
        ]
    },
    {
        "id": "55",
        "name": "Garrafeira Mini Mercado do Jardim",
        "address": "Rua Heróis do Ultramar, 19",
        "coordinates": [
            41.911652,
            -8.559714
        ]
    },
    {
        "id": "56",
        "name": "Ourivesaria Rodrigues",
        "address": "Rua Conselheiro Miguel Dantas, 67",
        "coordinates": [
            41.911363,
            -8.559572
        ]
    },
    {
        "id": "57",
        "name": "Centro de Camionagem",
        "coordinates": [
            41.911567,
            -8.558518
        ]
    },
    {
        "id": "58",
        "name": "Courense",
        "address": "Rua 25 de Abril, Centro de Camionagem",
        "coordinates": [
            41.911573,
            -8.558316
        ]
    },
    {
        "id": "59",
        "name": "X Decor",
        "address": "Rua 25 de Abril, 45 R/C Esq",
        "coordinates": [
            41.911621,
            -8.558152
        ]
    },
    {
        "id": "60",
        "name": "Papelaria Courense",
        "address": "Rua 25 de Abril, Centro de Camionagem, Comércio 3",
        "coordinates": [
            41.911443,
            -8.558431
        ]
    },
    {
        "id": "61",
        "name": "Bijou",
        "address": "Rua 25 de Abril, Centro de Camionagem, Comércio 4",
        "coordinates": [
            41.911427,
            -8.558267
        ]
    },
    {
        "id": "62",
        "name": "Salão Paula",
        "address": "Rua 25 de Abril, Centro de Camionagem, Comércio 1",
        "coordinates": [
            41.911335,
            -8.558409
        ]
    },
    {
        "id": "63",
        "name": "Café Central 2",
        "address": "Rua 25 de Abril, Centro de Camionagem, Comércio 2",
        "coordinates": [
            41.911339,
            -8.558253
        ]
    },
    {
        "id": "64",
        "name": "Crédito Agrícola",
        "coordinates": [
            41.911019,
            -8.559419
        ]
    },
    {
        "id": "65",
        "name": "Pedreira Seguros",
        "address": "Rua Dr Narciso Alves da Cunha, 3",
        "coordinates": [
            41.910854,
            -8.559309
        ]
    },
    {
        "id": "66",
        "name": "Frescos Coyra",
        "address": "Rua Dr Narciso Alves da Cunha, 9",
        "coordinates": [
            41.910774,
            -8.559251
        ]
    },
    {
        "id": "67",
        "name": "Chinês(?)",
        "coordinates": [
            41.910649,
            -8.559144
        ]
    },
    {
        "id": "68",
        "name": "Restaurante Albergaria",
        "address": "Rua Dr Narciso Alves da Cunha",
        "coordinates": [
            41.910499,
            -8.559033
        ]
    },
    {
        "id": "69",
        "name": "Bombeiros de Paredes de Coura",
        "address": "Rua 25 de Abril",
        "coordinates": [
            41.910351,
            -8.558712
        ]
    },
    {
        "id": "70",
        "name": "Restaurante Barbaças",
        "address": "Rua Dr Narciso Alves da Cunha, 19",
        "coordinates": [
            41.910457,
            -8.559192
        ]
    },
    {
        "id": "71",
        "name": "Arco Barca Imobiliária",
        "address": "Rua Dr Narciso Alves da Cunha, 14",
        "coordinates": [
            41.910521,
            -8.559238
        ]
    },
    {
        "id": "72",
        "name": "Livraria Gomes",
        "address": "Rua Dr Narciso Alves da Cunha, 8",
        "coordinates": [
            41.910595,
            -8.559295
        ]
    },
    {
        "id": "73",
        "name": "Sapataria Courense",
        "address": "Rua Dr. Narciso Alves da Cunha, 2-4",
        "coordinates": [
            41.910737,
            -8.559424
        ]
    },
    {
        "id": "74",
        "name": "Móveis Caldas",
        "address": "Rua Custódio José Vieira, 5",
        "coordinates": [
            41.910877,
            -8.559854
        ]
    },
    {
        "id": "75",
        "name": "Couratel",
        "address": "Rua Dr. Albano Barreiros, 11",
        "coordinates": [
            41.910879,
            -8.55997
        ]
    },
    {
        "id": "76",
        "name": "Caixa de Brinquedos",
        "coordinates": [
            41.911023,
            -8.560421
        ]
    },
    {
        "id": "77",
        "name": "Solicitadora Susana Mendes",
        "address": "Largo Hintze Ribeiro, Loja 38",
        "coordinates": [
            41.910795,
            -8.560586
        ]
    },
    {
        "id": "78",
        "name": "Gabinete de Estética A.G.",
        "address": "Largo Hintze Ribeiro, Loja 34",
        "coordinates": [
            41.91069,
            -8.560622
        ]
    },
    {
        "id": "79",
        "name": "Matos Oculista",
        "address": "Largo Hintze Ribeiro, Loja 32",
        "coordinates": [
            41.910614,
            -8.560686
        ]
    },
    {
        "id": "80",
        "name": "Olímpio Caldas AND Condomínios",
        "address": "Rua Dr Albano Barreiros, Edifício Coura Shopping, Loja 4",
        "coordinates": [
            41.910506,
            -8.560316
        ]
    },
    {
        "id": "81",
        "name": "Bella Vela Artesanato",
        "coordinates": [
            41.910477,
            -8.560401
        ]
    },
    {
        "id": "82",
        "name": "Clínica Médico Dentária Paula Lima",
        "address": "Rua Dr Albano Barreiros, Edifício Coura Shopping, Loja 7",
        "coordinates": [
            41.910465,
            -8.560335
        ]
    },
    {
        "id": "83",
        "name": "Florista Pilar Silva",
        "address": "Rua Dr Albano Barreiros, Edifício Coura Shopping, Loja 5",
        "coordinates": [
            41.910414,
            -8.560263
        ]
    },
    {
        "id": "84",
        "name": "Paula Caldas, Mediação de Seguros",
        "address": "Rua Dr Albano Barreiros, Edifício Coura Shopping, Loja 10",
        "coordinates": [
            41.910477,
            -8.560433
        ]
    },
    {
        "id": "85",
        "name": "RFM Informática",
        "address": "Rua Dr Albano Barreiros, Edifício Coura Shopping, Loja 6",
        "coordinates": [
            41.910406,
            -8.560278
        ]
    },
    {
        "id": "86",
        "name": "Cristina Cabeleireira",
        "address": "Rua Dr Albano Barreiros, Edifício Coura Shopping, Loja 11",
        "coordinates": [
            41.910432,
            -8.560454
        ]
    },
    {
        "id": "87",
        "name": "Paulo's Bar",
        "address": "Largo Hintze Ribeiro, Loja 28",
        "coordinates": [
            41.910609,
            -8.560768
        ]
    },
    {
        "id": "88",
        "name": "Ninibel",
        "address": "Largo Hintze Ribeiro, Loja 26",
        "coordinates": [
            41.910668,
            -8.56085
        ]
    },
    {
        "id": "89",
        "name": "Arquiteto Filipe Sousa",
        "address": "Largo Hintze Ribeiro, Loja 24",
        "coordinates": [
            41.910686,
            -8.560906
        ]
    },
    {
        "id": "90",
        "name": "Blue",
        "address": "Largo Hintze Ribeiro, Loja 20",
        "coordinates": [
            41.910708,
            -8.560962
        ]
    },
    {
        "id": "91",
        "name": "Ourivesaria Barros",
        "address": "Largo Beato Frei Redento da Cruz, Loja 4",
        "coordinates": [
            41.910506,
            -8.560831
        ]
    },
    {
        "id": "92",
        "name": "Minhahabita",
        "address": "Largo Beato Frei Redento da Cruz, 111",
        "coordinates": [
            41.910343,
            -8.56083
        ]
    },
    {
        "id": "93",
        "name": "Móveis Cunha",
        "coordinates": [
            41.909805,
            -8.560356
        ]
    },
    {
        "id": "93",
        "name": "Móveis Cunha",
        "coordinates": [
            41.910223,
            -8.560718
        ]
    },
    {
        "id": "93",
        "name": "Móveis Cunha",
        "coordinates": [
            41.910163,
            -8.560758
        ]
    },
    {
        "id": "94",
        "name": "Talho Ribeiro",
        "coordinates": [
            41.910084,
            -8.560693
        ]
    },
    {
        "id": "95",
        "name": "Angela Nails Beauty",
        "address": "Rua Dr Afonso Viana 84",
        "coordinates": [
            41.909875,
            -8.559926
        ]
    },
    {
        "id": "96",
        "name": "Florart",
        "address": "Rua Dr Afonso Viana 77",
        "coordinates": [
            41.909849,
            -8.559732
        ]
    },
    {
        "id": "97",
        "name": "Pizzaria Romântica",
        "address": "Rua Dr Afonso Viana 34",
        "coordinates": [
            41.910107,
            -8.559405
        ]
    },
    {
        "id": "98",
        "name": "Biblioteca Municipal Aquilino Ribeiro",
        "address": "Largo Beato Frei Redento da Cruz",
        "coordinates": [
            41.910428,
            -8.561297
        ]
    },
    {
        "id": "99",
        "name": "Assist Coura",
        "address": "Rua Tenente Coronel Cunha Brandão Loja 1 R/C",
        "coordinates": [
            41.909747,
            -8.564638
        ]
    },
    {
        "id": "100",
        "name": "Ginásio Corpo Vivo",
        "address": "Rua Tenente Coronel Cunha Brandão Lote 1. Loja Ginásio",
        "coordinates": [
            41.909931,
            -8.564803
        ]
    },
    {
        "id": "101",
        "name": "Spegulo",
        "address": "Rua Tenente Coronel Cunha Brandão Lote 1. Loja Ginásio",
        "coordinates": [
            41.909937,
            -8.564275
        ]
    },
    {
        "id": "102",
        "name": "Olga Rego",
        "address": "Rua Dr José Gomes Moreira Loja Nº1 R/C",
        "coordinates": [
            41.91208,
            -8.562344
        ]
    },
    {
        "id": "103",
        "name": "Icon",
        "address": "Rua Dr José Gomes Moreira, 318",
        "coordinates": [
            41.912156,
            -8.562383
        ]
    },
    {
        "id": "104",
        "name": "Café Palacium",
        "address": "Rua Dr José Gomes Moreira, 10",
        "coordinates": [
            41.912259,
            -8.562402
        ]
    }
]